City_ID,City,Lat,Lng,Max Temp,Humidity,Cloudiness,Wind Speed,Country,Date
0,ust'-ilimsk,58.0006,102.6619,2.79,87,66,1.89,RU,1694380400
1,iqaluit,63.7506,-68.5145,6.85,75,75,3.6,CA,1694380400
2,blackmans bay,-43.0167,147.3167,1.52,93,71,2.47,AU,1694380401
3,adamstown,-25.066,-130.1015,21.31,89,23,7.4,PN,1694380401
4,waitangi,-43.9535,-176.5597,12.68,88,32,5.36,NZ,1694380401
5,hawaiian paradise park,19.5933,-154.9731,27.71,78,100,2.57,US,1694380401
6,tieli,46.95,128.05,14.17,94,6,2.52,CN,1694380401
7,sitka,57.0531,-135.33,21.94,37,75,7.2,US,1694380317
8,santo domingo petapa,16.8181,-95.1403,30.26,61,55,5.62,MX,1694380402
9,yellowknife,62.456,-114.3525,17.45,66,20,6.71,CA,1694380402
10,talnakh,69.4865,88.3972,10.67,99,100,2.37,RU,1694380402
11,utrik,11.2278,169.8474,28.46,78,100,5.22,MH,1694380402
12,shahrak,34.1074,64.3052,15.28,25,0,0.87,AF,1694380403
13,roja,57.5,22.8167,16.4,89,91,2.66,LV,1694380403
14,quesada,10.3238,-84.4271,24.23,84,95,2.31,CR,1694380403
15,kodiak,57.79,-152.4072,8.96,83,100,4.81,US,1694380403
16,maintirano,-18.0667,44.0167,24.17,81,8,1.15,MG,1694380404
17,whitehorse,60.7161,-135.0538,15.61,48,75,3.09,CA,1694380404
18,grytviken,-54.2811,-36.5092,-1.56,87,90,2.34,GS,1694380404
19,isafjordur,66.0755,-23.124,5.39,64,3,3.48,IS,1694380404
20,qamdo,31.1667,97.2333,5.7,92,100,3.21,CN,1694380405
21,bredasdorp,-34.5322,20.0403,8.11,70,95,6.39,ZA,1694380405
22,margaret river,-33.95,115.0667,15.85,87,5,5.88,AU,1694380405
23,zouerate,22.7187,-12.4521,31.15,37,63,7.8,MR,1694380405
24,tiruchirappalli,10.8167,78.6833,28.06,74,40,4.12,IN,1694380405
25,canitas de felipe pescador,23.6,-102.7167,28.36,19,4,6.44,MX,1694380406
26,ola,59.5833,151.2833,6.19,80,8,1.75,RU,1694380406
27,vila velha,-20.3297,-40.2925,23.3,86,40,6.69,BR,1694380406
28,christchurch,-43.5333,172.6333,15.53,68,40,2.06,NZ,1694380200
29,kununurra,-15.7667,128.7333,27.99,23,100,7.2,AU,1694380406
30,east london,-33.0153,27.9116,18.37,80,93,1.76,ZA,1694380407
31,puerto natales,-51.7236,-72.4875,3.37,98,100,0.45,CL,1694380243
32,atafu village,-8.5421,-172.5159,27.95,74,100,2.53,TK,1694380407
33,fale old settlement,-9.3852,-171.2468,28.0,75,98,2.81,TK,1694380407
34,puerto armuelles,8.2833,-82.8667,29.99,72,27,0.45,PA,1694380407
35,panama city beach,30.1766,-85.8055,32.25,63,40,5.14,US,1694380103
36,albany,42.6001,-73.9662,24.23,96,100,0.26,US,1694380304
37,ilulissat,69.2167,-51.1,4.01,60,20,1.54,GL,1694380408
38,edinburgh of the seven seas,-37.0676,-12.3116,11.97,68,100,12.82,SH,1694380408
39,vila franca do campo,37.7167,-25.4333,20.23,73,48,0.53,PT,1694380409
40,an nuhud,12.7,28.4333,29.0,56,87,3.7,SD,1694380307
41,thompson,55.7435,-97.8558,15.09,47,40,3.6,CA,1694380409
42,inirida,3.8653,-67.9239,28.48,74,84,1.77,CO,1694380409
43,hythe,50.86,-1.4016,19.98,95,75,2.06,GB,1694380409
44,elko,41.0002,-115.5012,27.86,19,2,6.26,US,1694380410
45,mount isa,-20.7333,139.5,16.87,17,12,3.09,AU,1694380410
46,bilibino,68.0546,166.4372,3.52,77,23,0.79,RU,1694380410
47,jamestown,42.097,-79.2353,22.77,78,100,4.63,US,1694380347
48,ha giang,22.8333,104.9833,24.22,94,32,1.22,VN,1694380410
49,pachino,36.7186,15.0907,24.11,69,82,1.77,IT,1694380411
50,kingston,17.997,-76.7936,31.37,65,49,1.17,JM,1694380032
51,mugia,43.1041,-9.2179,19.53,87,72,2.08,ES,1694380411
52,college,64.8569,-147.8028,13.18,73,75,0.0,US,1694380411
53,invercargill,-46.4,168.35,6.68,89,49,10.28,NZ,1694380411
54,magadan,59.5667,150.8,5.85,77,2,0.83,RU,1694380412
55,san patricio,28.017,-97.5169,38.4,51,70,6.23,US,1694380412
56,st. john's,47.5649,-52.7093,24.04,85,40,4.63,CA,1694380363
57,lihue,21.9789,-159.3672,28.58,74,75,6.69,US,1694380412
58,puerto ayora,-0.7393,-90.3518,26.98,90,47,4.02,EC,1694380412
59,kill devil hills,36.0307,-75.676,28.0,89,100,0.0,US,1694380126
60,susuman,62.7833,148.1667,2.09,100,100,0.62,RU,1694380183
61,papatowai,-46.5619,169.4708,10.23,72,49,5.18,NZ,1694380413
62,kuala terengganu,5.3302,103.1408,24.97,94,20,1.54,MY,1694380413
63,ohara,35.25,140.3833,25.5,90,100,1.63,JP,1694380413
64,udachny,66.4167,112.4,4.14,59,60,3.66,RU,1694380413
65,lagos,6.5833,3.75,24.96,91,29,2.41,NG,1694380382
66,wailua homesteads,22.0669,-159.378,28.24,75,75,6.69,US,1694380414
67,juan griego,11.0817,-63.9655,38.07,41,67,5.14,VE,1694380414
68,north battleford,52.7834,-108.2847,23.56,33,75,0.0,CA,1694380414
69,queenstown,-31.8976,26.8753,15.88,35,0,7.62,ZA,1694380190
70,bethel,41.3712,-73.414,23.69,86,20,1.54,US,1694380415
71,iskateley,67.6803,53.1512,11.38,88,26,5.1,RU,1694380415
72,martapura,-3.4167,114.85,25.05,100,70,1.03,ID,1694380415
73,rabo de peixe,37.8,-25.5833,19.73,83,20,3.6,PT,1694380415
74,geraldton,-28.7667,114.6,12.23,100,40,4.63,AU,1694380415
75,remire-montjoly,4.9167,-52.2667,30.02,74,40,4.12,GF,1694380416
76,port-aux-francais,-49.35,70.2167,2.57,71,62,13.36,TF,1694380416
77,port saint john's,-31.6229,29.5448,19.11,77,82,2.53,ZA,1694380416
78,manado,1.487,124.8455,23.43,94,40,0.51,ID,1694380416
79,guiuan,11.0333,125.7247,27.92,74,87,3.17,PH,1694380417
80,stanley,54.868,-1.6985,17.1,94,75,2.06,GB,1694380417
81,mahbubabad,17.6167,80.0167,24.04,95,100,5.98,IN,1694380417
82,avarua,-21.2078,-159.775,23.03,83,100,7.2,CK,1694380417
83,ushuaia,-54.8,-68.3,6.81,57,20,2.06,AR,1694380417
84,kigorobya,1.6162,31.3089,19.91,90,100,2.72,UG,1694380418
85,georgetown,5.4112,100.3354,27.75,95,20,1.03,MY,1694380418
86,new norfolk,-42.7826,147.0587,2.18,92,73,1.14,AU,1694380418
87,jayapura,-2.5333,140.7,23.66,89,99,2.13,ID,1694380418
88,margate,51.3813,1.3862,22.61,73,71,1.79,GB,1694380246
89,alofi,-19.0595,-169.9187,25.94,61,85,8.23,NU,1694380419
90,bhadrachalam,17.6667,80.8833,24.73,96,100,2.43,IN,1694380419
91,nieuw amsterdam,5.8833,-55.0833,28.49,75,22,5.61,SR,1694380419
92,palmer,42.1584,-72.3287,22.65,85,100,2.06,US,1694380372
93,fada,9.5667,8.3,21.58,96,27,0.5,NG,1694380421
94,hermanus,-34.4187,19.2345,10.45,57,100,9.26,ZA,1694380421
95,chonchi,-42.6128,-73.8092,11.73,75,82,2.45,CL,1694380421
96,nemuro,43.3236,145.575,16.73,94,88,1.39,JP,1694380422
97,saint-philippe,-21.3585,55.7679,19.77,79,40,5.21,RE,1694380422
98,tual,-5.6667,132.75,25.3,87,87,9.07,ID,1694380423
99,muroto-misakicho,33.2833,134.15,25.23,81,37,2.86,JP,1694380423
100,west island,-12.1568,96.8225,24.99,78,40,3.09,CC,1694380424
101,la passe,45.5549,-0.8967,24.13,89,70,3.82,FR,1694380424
102,corinto,37.9407,22.9573,22.72,56,0,3.09,GR,1694380424
103,guerrero negro,27.9769,-114.0611,26.77,61,1,6.27,MX,1694380424
104,taro,-8.3862,115.28,22.0,92,70,0.84,ID,1694380424
105,tarinkot,32.6268,65.8733,23.52,11,0,0.99,AF,1694380425
106,cozumel,20.5083,-86.9458,31.64,82,40,3.09,MX,1694380425
107,al miqdadiyah,33.9786,44.9369,31.31,24,0,3.63,IQ,1694380425
108,saudarkrokur,65.7461,-19.6394,5.64,84,100,2.48,IS,1694380425
109,darovskoy,58.77,47.9564,9.22,91,12,2.26,RU,1694380426
110,bury st edmunds,52.2463,0.7111,21.9,100,20,2.57,GB,1694380426
111,olonkinbyen,70.9221,-8.7187,2.24,70,86,3.28,SJ,1694380417
112,rio grande,-32.035,-52.0986,19.06,89,83,6.55,BR,1694380426
113,yangiobod,41.1192,70.0941,21.65,32,24,2.9,UZ,1694380426
114,sabzevar,36.2126,57.6819,23.39,48,0,4.03,IR,1694380426
115,klyuchi,52.2667,79.1667,15.25,60,100,6.2,RU,1694380427
116,bonthe,7.5264,-12.505,25.51,87,100,2.81,SL,1694380427
117,ta`u,-14.2336,-169.5144,26.59,77,61,4.58,AS,1694380427
118,qarauyl,48.9451,79.255,16.18,53,50,2.22,KZ,1694380427
119,ribeira grande,38.5167,-28.7,22.1,80,14,0.89,PT,1694380428
120,caxito,-8.5785,13.6643,22.33,83,0,1.49,AO,1694380428
121,aasiaat,68.7098,-52.8699,0.89,71,100,2.96,GL,1694380428
122,santa ana,33.7456,-117.8678,37.2,53,75,5.66,US,1694380378
123,persembe,41.0656,37.7714,17.68,65,61,2.88,TR,1694380428
124,la'ie,21.6477,-157.9253,30.98,70,98,4.47,US,1694380428
125,kimbe,-5.5502,150.1429,24.21,90,99,2.32,PG,1694380429
126,kerikeri,-35.2268,173.9474,14.95,93,89,2.24,NZ,1694380429
127,magdagachi,53.45,125.8,6.92,85,100,2.53,RU,1694380429
128,caleta de carquin,-11.0925,-77.6267,20.82,75,18,4.49,PE,1694380420
129,chilecito,-29.1619,-67.4974,31.88,7,18,6.61,AR,1694380429
130,as sulayyil,20.4607,45.5779,31.14,11,27,1.96,SA,1694380430
131,fuyuan,46.4333,127.0833,15.36,98,28,4.01,CN,1694380430
132,yigo village,13.5361,144.8886,25.97,90,40,3.09,GU,1694380430
133,vorkuta,67.5,64.0,8.63,87,100,4.22,RU,1694380430
134,vuktyl,63.8567,57.3094,8.73,75,17,0.62,RU,1694380431
135,afaahiti,-17.75,-149.2833,24.93,80,0,6.11,PF,1694380425
136,benguela,-12.5763,13.4055,20.97,84,62,2.73,AO,1694380431
137,hithadhoo,-0.6,73.0833,27.82,75,82,4.94,MV,1694380431
138,belmonte,-15.8631,-38.8828,23.15,75,19,3.56,BR,1694380432
139,lebu,-37.6167,-73.65,11.73,90,100,3.45,CL,1694380421
140,tiksi,71.6872,128.8694,1.94,71,5,4.25,RU,1694380432
141,entebbe,0.0644,32.4469,20.0,88,95,3.75,UG,1694380432
142,la ronge,55.1001,-105.2842,19.12,29,20,3.6,CA,1694380428
143,shantobe,52.4581,68.1839,9.62,67,100,2.43,KZ,1694380433
144,constantia,44.1833,28.65,14.38,56,2,4.7,RO,1694380433
145,vadso,70.0744,29.7487,9.49,87,0,1.03,NO,1694380433
146,badger,64.8,-147.5333,13.14,73,20,0.0,US,1694380433
147,chibougamau,49.9168,-74.3659,18.79,39,75,0.0,CA,1694380433
148,coquimbo,-29.9533,-71.3436,17.74,60,100,2.71,CL,1694380119
149,chokwe,-24.5333,32.9833,24.65,28,0,3.19,MZ,1694380434
150,pianillo,40.8317,14.5333,25.88,60,10,0.62,IT,1694380434
151,bandon,51.7469,-8.7425,18.77,95,76,1.47,IE,1694380430
152,linares,-35.85,-71.6,12.48,94,100,4.71,CL,1694380435
153,longyearbyen,78.2186,15.6401,0.91,86,75,8.75,SJ,1694380435
154,kibungo,-2.1597,30.5427,17.51,79,97,0.86,RW,1694380435
155,jakiri,6.1,10.65,16.09,94,99,1.83,CM,1694380435
156,black river,18.0264,-77.8487,30.76,65,30,1.45,JM,1694380435
157,pestravka,52.405,49.9583,12.13,71,76,3.28,RU,1694380436
158,lompoc,34.6391,-120.4579,33.34,69,0,5.14,US,1694380418
159,anadyr,64.75,177.4833,7.28,65,20,1.79,RU,1694380417
160,san rafael del sur,11.8485,-86.4384,34.54,48,22,3.74,NI,1694380436
161,lamu,-2.2717,40.902,24.5,88,49,5.72,KE,1694380436
162,kertih,4.5141,103.4483,24.5,92,100,2.01,MY,1694380436
163,alice springs,-23.7,133.8833,12.9,53,0,25.48,AU,1694380437
164,daru,-9.0763,143.2092,25.12,81,100,8.37,PG,1694380437
165,qaqortoq,60.7167,-46.0333,4.83,72,100,1.65,GL,1694380434
166,luba,3.4568,8.5547,25.67,89,23,2.2,GQ,1694380437
167,padang,-0.9492,100.3543,23.03,88,52,3.29,ID,1694380231
168,kapuskasing,49.4169,-82.4331,18.22,61,73,1.89,CA,1694380203
169,ha tinh,18.3333,105.9,25.61,84,100,1.96,VN,1694380438
170,chita,52.0333,113.55,0.94,100,11,1.0,RU,1694380398
171,acarau,-2.8856,-40.12,26.19,73,1,9.16,BR,1694380333
172,kavieng,-2.5744,150.7967,27.26,78,85,3.93,PG,1694380438
173,nambutalai,9.7167,79.0,25.6,86,100,1.22,IN,1694380439
174,kavaratti,10.5669,72.642,27.68,81,95,6.62,IN,1694380439
175,dapa,9.7594,126.0531,27.41,79,88,3.19,PH,1694380439
176,karratha,-20.7377,116.8463,23.18,48,25,3.52,AU,1694380422
177,cannonvale,-20.2833,148.7,21.66,66,18,8.49,AU,1694380439
178,isla mujeres,21.2311,-86.731,30.09,78,53,2.87,MX,1694380440
179,howard springs,-12.497,131.047,23.95,86,94,2.87,AU,1694380440
180,chipinge,-20.1883,32.6236,17.03,47,0,2.22,ZW,1694380440
181,murzuq,25.9155,13.9184,27.76,28,0,2.47,LY,1694380440
182,berezovyy,51.6667,135.7,10.27,81,47,1.27,RU,1694380441
183,enewetak,11.3474,162.3373,28.71,73,83,3.19,MH,1694380441
184,vitoria da conquista,-14.8661,-40.8394,20.69,42,1,3.65,BR,1694380255
185,hamilton,39.1834,-84.5333,28.33,58,75,3.6,US,1694380162
186,ust-nera,64.5667,143.2,2.21,97,100,2.01,RU,1694380416
187,necochea,-38.5473,-58.7368,15.7,69,91,2.77,AR,1694380442
188,freetown,8.484,-13.2299,25.49,85,100,2.94,SL,1694380442
189,viqueque,-8.8673,126.3658,23.26,91,83,1.07,TL,1694380442
190,usinsk,65.9939,57.5281,9.56,87,57,4.21,RU,1694380443
191,whangarei,-35.7317,174.3239,15.39,78,98,3.71,NZ,1694380443
192,horta,38.5333,-28.6333,21.68,80,29,0.89,PT,1694380444
193,buriti dos lopes,-3.175,-41.8669,28.86,70,64,5.32,BR,1694380444
194,sint michiel liber,12.15,-68.9833,31.9,74,20,5.14,CW,1694380444
195,safotu,-13.4513,-172.4018,27.43,80,71,4.61,WS,1694380445
196,dudinka,69.4058,86.1778,10.9,98,100,4.01,RU,1694380419
197,petropavlovsk-kamchatsky,53.0452,158.6483,8.33,76,20,2.0,RU,1694380421
198,szigetvar,46.0486,17.8055,21.53,41,5,1.28,HU,1694380445
199,arkhangel'sk,64.5401,40.5433,10.69,92,5,2.52,RU,1694380446
200,tralee,52.2704,-9.7026,15.81,96,100,1.97,IE,1694380446
201,kurmuk,10.55,34.2833,21.22,96,98,1.8,SD,1694380446
202,mandali,33.7499,45.5541,32.35,22,0,4.17,IQ,1694380447
203,namibe,-15.1961,12.1522,16.81,89,88,1.66,AO,1694380447
204,grand baie,-20.0182,57.5802,23.58,68,14,0.89,MU,1694380447
205,tsiombe,-25.3,45.4833,21.96,69,0,0.55,MG,1694380417
206,vilyuchinsk,52.9306,158.4028,9.15,58,8,4.31,RU,1694380447
207,ocean city,39.2776,-74.5746,28.34,79,95,3.13,US,1694380448
208,waounde,15.2637,-12.8682,32.36,55,47,3.59,SN,1694380448
209,fort bragg,35.139,-79.006,30.58,64,75,3.09,US,1694380253
210,puerto baquerizo moreno,-0.9,-89.6,27.55,69,40,7.72,EC,1694380341
211,kristiansund,63.1115,7.732,13.03,87,75,1.03,NO,1694380449
212,mariehamn,60.0973,19.9348,18.23,100,40,0.51,AX,1694380449
213,mahajanga,-15.7167,46.3167,24.17,63,2,4.38,MG,1694380449
214,ailuk,10.2197,169.9797,28.71,76,100,5.01,MH,1694380449
215,lai chau,22.3997,103.4517,19.92,95,24,0.74,VN,1694380449
216,port lincoln,-34.7333,135.8667,12.79,58,99,3.85,AU,1694380450
217,bandarbeyla,9.4942,50.8122,25.91,79,25,11.65,SO,1694380450
218,kani keli,-12.9536,45.1033,23.59,77,13,4.27,YT,1694380450
219,salinopolis,-0.6136,-47.3561,27.4,81,13,6.97,BR,1694380450
220,gwanda,-20.9333,29.0,19.8,21,0,1.99,ZW,1694380450
221,neryungri,56.6709,124.6491,1.25,98,97,1.47,RU,1694380451
222,shushtar,32.0455,48.8567,35.13,14,0,2.95,IR,1694380451
223,uturoa,-16.7333,-151.4333,26.24,74,1,2.59,PF,1694380451
224,magistral'nyy,56.1725,107.4458,2.22,92,20,1.06,RU,1694380451
225,bolivar,37.6145,-93.4105,30.56,40,36,3.22,US,1694380452
226,yaren,-0.5472,166.916,28.27,74,8,2.59,NR,1694380452
227,flying fish cove,-10.4217,105.6791,23.82,83,75,5.66,CX,1694380452
228,palamos,41.8484,3.1291,22.84,85,20,3.76,ES,1694380452
229,coahuayana de hidalgo,18.7,-103.6583,32.38,63,22,3.51,MX,1694380452
230,wynyard,-41.0,145.7167,6.66,82,85,2.23,AU,1694380453
231,luderitz,-26.6481,15.1594,13.17,81,0,1.64,NA,1694380453
232,urumqi,43.801,87.6005,19.53,40,0,1.0,CN,1694380453
233,saipan,15.1355,145.701,27.39,83,75,4.63,MP,1694380038
234,arkalyk,50.2486,66.9114,12.12,53,100,7.22,KZ,1694380453
235,khandyga,62.6667,135.6,2.17,98,100,1.67,RU,1694380454
236,junin,-34.5838,-60.9433,19.94,75,68,3.14,AR,1694380311
237,kone,-21.0595,164.8658,21.68,69,2,1.44,NC,1694380426
238,nikolayevsk-on-amure,53.1406,140.73,10.83,80,96,1.35,RU,1694380454
239,kurtamysh,54.9103,64.4319,9.22,82,62,3.0,RU,1694380454
240,naha,26.2125,127.6811,26.95,89,20,4.12,JP,1694380419
241,krasnokamensk,50.0979,118.0369,6.78,89,100,2.09,RU,1694380455
242,odda,60.0691,6.5457,18.76,96,94,2.55,NO,1694380455
243,al majaridah,19.1236,41.9111,33.11,45,100,0.59,SA,1694380455
244,zapolyarnyy,69.4154,30.8136,8.6,84,94,0.73,RU,1694380455
245,olinda,-8.0089,-34.8553,26.85,65,75,3.6,BR,1694380316
246,kruisfontein,-34.0033,24.7314,11.95,80,11,8.35,ZA,1694380456
247,porto novo,6.4965,2.6036,25.0,88,13,2.87,BJ,1694380235
248,barra de santo antonio,-9.4047,-35.5072,24.6,78,8,4.31,BR,1694380456
249,punta arenas,-53.15,-70.9167,4.06,93,100,6.17,CL,1694380442
250,gushu,31.5598,118.4829,24.99,92,82,1.54,CN,1694380457
251,fuding,27.3273,120.214,21.23,87,5,1.18,CN,1694380457
252,keflavik,64.0049,-22.5624,8.95,76,75,7.2,IS,1694380457
253,shakawe,-18.3667,21.85,21.52,15,1,1.99,BW,1694380457
254,yerofey pavlovich,53.9667,121.9667,5.21,80,98,1.22,RU,1694380458
255,xilin hot,43.9667,116.0333,8.35,91,34,2.75,CN,1694380458
256,codrington,-38.2667,141.9667,6.87,95,94,2.61,AU,1694380439
257,pont rouge,48.8833,-72.0825,21.06,59,56,0.8,CA,1694380458
258,tocopilla,-22.092,-70.1979,19.53,73,37,1.1,CL,1694380433
259,sinmak,38.4167,126.2333,18.88,88,82,0.5,KP,1694380459
260,kitimat,54.0524,-128.6534,24.85,42,63,2.02,CA,1694380222
261,itupiranga,-5.1347,-49.3267,34.18,43,51,1.85,BR,1694380397
262,port alfred,-33.5906,26.891,16.21,86,98,1.34,ZA,1694380417
263,traverse city,44.7631,-85.6206,20.06,78,100,2.57,US,1694380280
264,midvagur,62.0511,-7.1939,10.46,100,100,4.12,FO,1694380450
265,manicore,-5.8092,-61.3003,35.97,44,0,2.57,BR,1694380460
266,patnanungan,14.7833,122.1833,27.32,83,77,4.14,PH,1694380460
267,cam pha mines,21.0167,107.3,24.4,90,75,1.81,VN,1694380460
268,concepcion,-36.827,-73.0498,13.89,100,100,4.12,CL,1694380460
269,montagu,-40.7667,144.9667,7.11,80,100,2.5,AU,1694380461
270,mount pearl,47.5166,-52.7813,23.58,85,40,4.63,CA,1694380461
271,port mathurin,-19.6833,63.4167,22.83,72,58,9.22,MU,1694380439
272,oranjemund,-28.55,16.4333,13.23,79,47,6.17,NA,1694380461
273,mikhaylovskoye,51.8239,79.7172,15.68,58,87,5.13,RU,1694380461
274,klaksvik,62.2266,-6.589,10.51,87,100,6.53,FO,1694380462
275,okhotsk,59.3833,143.3,6.08,58,0,5.39,RU,1694380462
276,lata,40.1629,-8.3327,18.84,97,68,0.16,PT,1694380434
277,bikenibeu village,1.3673,173.1241,28.98,79,40,2.06,KI,1694380462
278,copiapo,-27.3667,-70.3333,30.27,10,100,3.24,CL,1694380111
279,xinyuan,37.3,99.0,4.87,88,100,1.45,CN,1694380463
280,itoman,26.1247,127.6694,27.01,89,20,4.12,JP,1694380463
281,krasnokamsk,58.0802,55.7541,12.09,76,88,3.21,RU,1694380463
282,maumere,-8.6199,122.2111,25.03,84,16,2.05,ID,1694380463
283,byron bay,-28.65,153.6167,12.62,73,76,4.22,AU,1694380463
284,mbuji-mayi,-6.15,23.6,23.15,84,86,0.86,CD,1694380464
285,fredericton,45.9454,-66.6656,24.91,74,100,1.54,CA,1694380464
286,walvis bay,-22.9575,14.5053,12.83,74,0,7.69,NA,1694380464
287,puerto madero,14.7208,-92.4215,33.11,66,20,2.57,MX,1694380464
288,tosontsengel,48.7567,98.2839,1.85,54,28,0.66,MN,1694380464
289,laplace,30.0666,-90.4801,33.88,46,0,0.0,US,1694380465
290,khamharia,20.9833,82.2667,23.82,96,80,1.6,IN,1694380465
291,sirjan,29.452,55.6814,26.2,33,13,3.87,IR,1694380465
292,mirny,62.5353,113.9611,1.16,67,82,1.97,RU,1694380465
293,port blair,11.6667,92.75,26.02,89,100,4.12,IN,1694380440
294,nar'yan-mar,67.6713,53.087,11.43,88,24,5.09,RU,1694380436
295,bubaque,11.2833,-15.8333,27.49,80,87,5.24,GW,1694380466
296,zaozhuang,34.8647,117.5542,20.96,83,100,1.06,CN,1694380466
297,tromso,69.6496,18.957,10.01,87,75,8.75,NO,1694380441
298,chiba,35.6047,140.1233,28.88,98,99,1.95,JP,1694380232
299,yanykurgan,43.915,67.2481,22.04,23,16,2.7,KZ,1694380468
300,playa de san juan,38.3719,-0.4153,25.33,79,40,5.66,ES,1694380468
301,plouzane,48.3833,-4.6167,18.1,94,75,2.57,FR,1694380469
302,ebon,4.582,168.6964,28.38,73,94,3.37,MH,1694380469
303,magong,23.5654,119.5863,26.25,82,11,1.91,TW,1694380469
304,vicente guerrero,19.1194,-98.1708,23.66,46,57,2.4,MX,1694380469
305,naze,28.3667,129.4833,22.51,78,62,2.02,JP,1694380457
306,macapa,0.0389,-51.0664,30.99,66,40,7.2,BR,1694380470
307,umluj,25.0213,37.2685,30.36,60,90,2.73,SA,1694380470
308,salekhard,66.53,66.6019,9.62,75,92,3.75,RU,1694380471
309,saldanha,-33.0117,17.9442,11.5,58,99,6.47,ZA,1694380469
310,nantucket,41.2835,-70.0995,24.52,94,99,2.95,US,1694380372
311,erdek,40.3996,27.7935,22.15,60,20,10.29,TR,1694380471
312,bom jesus,-9.0744,-44.3586,31.49,22,3,2.62,BR,1694380471
313,los frentones,-26.4077,-61.4137,33.79,33,1,2.7,AR,1694380472
314,adrar,20.5022,-10.0711,31.4,40,79,8.09,MR,1694380472
315,chingirlau,51.095,54.0814,9.64,88,57,3.03,KZ,1694380472
316,tynda,55.1667,124.7167,1.37,89,94,1.4,RU,1694380473
317,arno,60.1167,18.6333,18.21,91,43,2.35,SE,1694380473
318,colonel hill,22.7667,-74.2167,29.35,77,11,6.35,BS,1694380473
319,norilsk,69.3535,88.2027,10.79,98,100,2.61,RU,1694380473
320,gebeit,21.0667,36.3167,30.17,34,1,1.01,SD,1694380473
321,sinop,41.7711,34.8709,9.33,86,14,1.35,TR,1694380433
322,dampit,-8.2116,112.7493,19.28,86,87,1.79,ID,1694380474
323,dalandzadgad,43.5708,104.425,10.92,46,5,1.38,MN,1694380474
324,tarko-sale,64.9225,77.785,12.78,69,100,3.58,RU,1694380474
325,katsuura,35.1333,140.3,25.76,89,100,1.55,JP,1694380474
326,pisco,-13.7,-76.2167,22.03,64,0,5.14,PE,1694380475
327,mkushi,-13.6202,29.3939,19.48,30,0,1.87,ZM,1694380475
328,mogocha,53.7333,119.7667,2.36,94,39,1.42,RU,1694380475
329,pathardi,19.1667,75.1833,22.88,88,95,3.0,IN,1694380475
330,konarka,19.9,86.1167,27.22,85,67,3.47,IN,1694380475
331,sao gabriel da cachoeira,-0.1303,-67.0892,29.71,64,73,0.23,BR,1694380476
332,natal,-5.795,-35.2094,26.12,78,20,5.14,BR,1694380453
333,sebastopol,44.6,33.5333,14.44,40,0,3.43,UA,1694380476
334,laojunmiao,39.8333,97.7333,15.44,34,0,2.14,CN,1694380476
335,reggane,26.7158,0.1714,38.08,15,67,5.31,DZ,1694380477
336,bardai,11.65,7.2333,24.5,81,15,3.76,NG,1694380477
337,ganshui,28.7422,106.7111,25.11,74,58,1.5,CN,1694380477
338,nuku'alofa,-21.1333,-175.2,24.19,73,20,7.72,TO,1694380477
339,tazacorte,28.629,-17.9293,24.54,82,75,3.09,ES,1694380473
340,tamanrasset,22.785,5.5228,25.95,53,40,4.63,DZ,1694380450
341,ad dilam,23.9915,47.1627,35.23,13,5,1.1,SA,1694380478
342,lazaro cardenas,17.9583,-102.2,30.92,65,16,3.42,MX,1694380478
343,hammerfest,70.6634,23.6821,10.25,81,75,8.23,NO,1694380478
344,rabaul,-4.1967,152.1721,25.56,84,69,5.09,PG,1694380478
345,port elizabeth,-33.918,25.5701,14.16,88,40,7.72,ZA,1694380459
346,sairang,23.8,92.6667,23.95,99,100,0.97,IN,1694380484
347,sake,-1.5736,29.045,17.83,95,100,0.44,CD,1694380484
348,abhar,36.1468,49.218,13.39,87,77,3.17,IR,1694380484
349,ugoofaaru,5.6667,73.0,27.22,79,100,4.49,MV,1694380484
350,tobelo,1.7284,128.0095,25.81,85,100,1.91,ID,1694380484
351,cole harbour,44.6724,-63.4751,24.54,85,71,3.6,CA,1694380485
352,sola,-13.8833,167.55,27.37,74,75,0.0,VU,1694380468
353,nongstoin,25.5167,91.2667,19.57,97,100,1.02,IN,1694380485
354,tura,25.5198,90.2201,24.46,94,100,0.51,IN,1694380485
355,bichura,50.5881,107.6022,3.62,89,7,1.57,RU,1694380486
356,nouadhibou,20.931,-17.0347,25.99,65,4,4.12,MR,1694380486
357,tomatlan,19.9333,-105.25,32.74,61,9,4.19,MX,1694380426
358,san antonio de pale,-1.4014,5.6325,23.92,86,58,4.28,GQ,1694380453
359,yelizovo,53.1873,158.3805,9.08,75,20,2.0,RU,1694380486
360,tolanaro,-25.0319,46.9987,21.41,82,0,7.4,MG,1694380458
361,fort st. john,56.2499,-120.8529,22.94,38,0,4.12,CA,1694380487
362,poplar bluff,36.757,-90.3929,28.85,50,0,3.09,US,1694380220
363,glendive,47.1053,-104.7125,22.61,59,0,2.57,US,1694380487
364,colonia,50.9333,6.95,24.98,78,0,0.51,DE,1694380487
365,bhimunipatnam,17.8833,83.4333,27.31,85,88,2.52,IN,1694380488
366,hadibu,12.65,54.0333,26.41,80,88,7.96,YE,1694380488
367,yarmouth,41.7057,-70.2286,25.01,91,100,3.58,US,1694380488
368,el fasher,13.6279,25.3494,30.78,45,81,7.83,SD,1694380199
369,salalah,17.0151,54.0924,27.23,84,100,2.63,OM,1694380428
370,aktau,43.65,51.2,16.32,54,28,11.15,KZ,1694380489
371,khorugh,37.4897,71.553,14.71,27,0,0.98,TJ,1694380489
372,olyokminsk,60.3736,120.4264,4.07,97,100,0.87,RU,1694380489
373,plastun,44.7561,136.2939,15.9,85,100,0.83,RU,1694380490
374,otjiwarongo,-20.4637,16.6477,17.16,39,69,3.33,NA,1694380490
375,puerto lleras,3.0223,-73.4044,23.56,97,99,1.8,CO,1694380491
376,labasa,-16.4167,179.3833,25.89,70,33,3.56,FJ,1694380491
377,mermoz boabab,14.7065,-17.4758,28.31,82,94,2.48,SN,1694380491
378,tapachula,14.9,-92.2833,32.29,66,20,2.57,MX,1694380492
379,shinas,24.7433,56.4658,30.14,74,6,2.02,OM,1694380493
380,temozon,20.8,-88.2167,34.05,57,100,1.89,MX,1694380493
381,sinabang,2.4803,96.3801,26.57,81,100,3.84,ID,1694380493
382,carmo do paranaiba,-19.0008,-46.3161,23.88,32,0,3.26,BR,1694380494
383,jean-rabel,19.8533,-73.1917,31.27,66,25,5.36,HT,1694380494
384,lamar,33.6668,-95.5836,33.88,35,0,0.0,US,1694380494
385,ambon,-3.6954,128.1814,27.15,95,75,3.6,ID,1694380494
386,coronel dorrego,-38.7187,-61.2873,16.74,47,100,3.82,AR,1694380495
387,sabang,5.8933,95.3214,27.86,74,100,5.75,ID,1694380495
388,caorle,45.5966,12.8758,22.23,61,20,1.62,IT,1694380495
389,belyy yar,53.6039,91.3903,5.94,93,0,0.0,RU,1694380445
390,vilyuysk,63.7553,121.6247,2.8,97,100,1.95,RU,1694380454
391,gao,16.6362,1.637,36.41,30,52,3.28,ML,1694380496
392,goure,13.9835,10.2704,33.51,38,76,4.41,NE,1694380496
393,la sarre,48.8002,-79.1996,19.29,47,100,1.22,CA,1694380496
394,polyarnyye zori,67.3661,32.4981,12.04,90,88,1.29,RU,1694380496
395,haimen,23.1935,116.6142,23.94,87,74,1.24,CN,1694380496
396,sao vicente,-23.9631,-46.3919,24.1,26,70,0.45,BR,1694380208
397,kodar,16.9833,79.9667,24.59,91,100,5.66,IN,1694380497
398,sao manuel,-22.7311,-48.5706,26.56,38,4,2.79,BR,1694380497
399,aral,40.5156,81.2636,23.68,23,59,4.73,CN,1694380497
400,amungan,15.3652,119.9582,25.93,86,91,0.89,PH,1694380498
401,carutapera,-1.195,-46.02,27.08,78,9,4.84,BR,1694380498
402,saynshand,44.8824,110.1163,10.35,57,4,2.96,MN,1694380433
403,cuito,-12.3833,16.9333,18.08,19,0,1.49,AO,1694380498
404,azemmour,33.2895,-8.3425,22.13,84,91,2.12,MA,1694380498
405,cambria,35.5641,-121.0808,37.15,55,13,5.88,US,1694380499
406,qulsary,46.9531,54.0198,14.25,75,100,4.88,KZ,1694380499
407,yeniseysk,58.4497,92.1703,8.86,69,100,1.34,RU,1694380499
408,turtas,58.9417,69.1325,8.91,85,9,2.22,RU,1694380499
409,doka,13.5167,35.7667,24.16,91,76,2.42,SD,1694380499
410,eynesil,41.0645,39.1438,17.76,75,76,3.54,TR,1694380500
411,muang xay,20.7,101.9833,20.91,99,82,0.6,LA,1694380500
412,nur-sultan,51.1801,71.446,6.97,93,0,5.0,KZ,1694380500
413,selfoss,63.9331,-20.9971,7.8,83,98,3.38,IS,1694380500
414,saint-pierre,-21.3393,55.4781,19.82,73,0,3.6,RE,1694380446
415,hawera,-39.5917,174.2833,12.4,81,83,7.29,NZ,1694380211
416,garissa,-0.4536,39.6401,24.86,76,8,9.08,KE,1694380501
417,terre haute,39.4667,-87.4139,27.92,51,0,1.54,US,1694380263
418,markovo,57.3206,107.0881,3.37,91,77,1.28,RU,1694380501
419,kidal,18.4411,1.4078,33.94,29,91,3.07,ML,1694380502
420,williams lake,52.1415,-122.1445,29.47,27,40,8.23,CA,1694380426
421,cidade velha,14.9167,-23.6167,27.26,89,75,3.09,CV,1694380503
422,ploudalmezeau,48.5333,-4.65,18.21,94,75,2.57,FR,1694380503
423,faro,37.0194,-7.9322,21.09,94,0,3.09,PT,1694380504
424,lepsy,46.235,78.9456,19.45,67,8,3.13,KZ,1694380504
425,lobatse,-25.2167,25.6667,21.51,19,2,2.44,BW,1694380504
426,fukagawa,43.7081,142.0392,20.38,93,99,1.03,JP,1694380505
427,bodaybo,57.8506,114.1933,3.64,88,100,0.47,RU,1694380505
428,letlhakeng,-24.0944,25.0298,22.88,18,0,3.22,BW,1694380278
429,arraial do cabo,-22.9661,-42.0278,22.92,88,40,3.09,BR,1694380279
430,mahina,-17.5065,-149.489,25.87,83,100,3.09,PF,1694380451
431,nova sintra,14.8667,-24.7167,24.42,78,94,4.26,CV,1694380447
432,hasaki,35.7333,140.8333,25.16,88,100,2.36,JP,1694380452
433,as sanamayn,33.0723,36.1838,22.82,78,0,6.18,SY,1694380506
434,vikulovo,56.8167,70.6107,12.47,82,95,2.46,RU,1694380507
435,north platte,41.1239,-100.7654,18.4,92,100,1.54,US,1694380507
436,san andres,12.5847,-81.7006,32.01,66,20,5.66,CO,1694380289
437,prado,-17.3411,-39.2208,22.96,77,3,3.53,BR,1694380507
438,ondangwa,-17.9167,15.95,23.48,21,6,5.98,NA,1694380508
439,luanda,-8.8368,13.2343,23.0,73,75,2.57,AO,1694380231
440,calvinia,-31.4707,19.776,6.33,87,80,7.11,ZA,1694380508
441,nago,26.5881,127.9761,26.24,85,17,1.78,JP,1694380508
442,creel,27.75,-107.6333,27.87,15,3,4.08,MX,1694380508
443,praia da vitoria,38.7333,-27.0667,22.14,83,20,1.25,PT,1694380492
444,madinat ash shamal,26.1293,51.2009,32.44,64,6,2.97,QA,1694380509
445,vernon,50.2581,-119.2691,32.09,21,0,1.03,CA,1694380498
446,alta,69.9689,23.2717,8.99,73,0,4.12,NO,1694380509
447,rio claro,-22.4114,-47.5614,28.0,59,63,1.28,BR,1694380510
448,jinhua,29.1078,119.6547,21.69,84,48,1.3,CN,1694380510
449,an nabk,34.0255,36.7284,18.74,71,0,1.06,SY,1694380510
450,serowe,-22.3833,26.7167,21.96,21,0,2.62,BW,1694380510
451,fort mcmurray,56.7268,-111.381,23.77,40,0,7.2,CA,1694379909
452,vorgashor,67.5833,63.95,8.71,86,100,4.3,RU,1694380511
453,sena madureira,-9.0656,-68.6569,35.73,34,59,1.73,BR,1694380419
454,siwa oasis,29.2041,25.5195,28.51,41,9,6.78,EG,1694380511
455,beichengqu,40.4394,113.1536,15.61,70,83,1.59,CN,1694380511
456,heyuan,23.7333,114.6833,23.94,96,100,0.74,CN,1694380512
457,brandon,27.9378,-82.2859,35.14,59,0,2.57,US,1694380512
458,samalut,28.3121,30.7101,32.2,25,0,3.79,EG,1694380512
459,batang,-6.4846,110.7083,23.9,71,4,3.08,ID,1694380512
460,flin flon,54.7682,-101.865,17.91,48,75,2.06,CA,1694380513
461,male,4.1748,73.5089,28.97,84,75,5.66,MV,1694380513
462,loukhi,66.0764,33.0381,15.42,85,100,2.71,RU,1694380515
463,wytheville,36.9484,-81.0848,21.94,85,89,0.45,US,1694380452
464,villa rica,33.7321,-84.9191,31.88,58,21,0.45,US,1694380515
465,pamekasan,-7.1568,113.4746,24.74,76,27,2.17,ID,1694380515
466,awjilah,29.1081,21.2869,24.53,64,0,9.33,LY,1694380516
467,buharkent,37.964,28.7427,24.29,33,22,3.07,TR,1694380516
468,buala,-8.145,159.5921,26.55,81,66,4.14,SB,1694380516
469,enoch,37.7733,-113.0244,22.14,50,100,4.63,US,1694380516
470,el colomo,19.05,-104.25,31.99,69,15,3.95,MX,1694380517
471,kourou,5.1552,-52.6478,30.03,74,71,4.63,GF,1694380517
472,esperanza,19.5847,-70.9849,32.32,71,25,1.34,DO,1694380517
473,charters towers,-20.1,146.2667,16.1,92,43,3.99,AU,1694380442
474,paradip garh,20.3167,86.6167,27.96,86,47,3.32,IN,1694380517
475,lorengau,-2.0226,147.2712,26.18,85,98,2.77,PG,1694380518
476,illizi,26.4833,8.4667,28.89,19,0,3.59,DZ,1694380518
477,matthew town,20.95,-73.6667,30.4,73,54,5.2,BS,1694380518
478,shahrud,36.4182,54.9763,18.17,70,1,5.77,IR,1694380519
479,mukalla,14.5425,49.1242,31.27,61,55,1.02,YE,1694380519
480,vargashi,55.3556,65.8467,10.61,76,20,3.54,RU,1694380519
481,ulsteinvik,62.3432,5.8487,15.42,85,100,1.34,NO,1694380486
482,pandan,14.0453,124.1694,26.06,85,50,1.53,PH,1694380432
483,ghadamis,30.1337,9.5007,29.59,29,27,2.88,LY,1694380520
484,san fernando,15.0286,120.6898,25.85,94,100,0.49,PH,1694380520
485,voi,-3.3945,38.563,21.27,83,26,4.49,KE,1694380520
486,tabuk,17.4189,121.4443,22.95,92,100,1.13,PH,1694380520
487,faya-largeau,17.9257,19.1043,38.94,15,100,6.34,TD,1694380521
488,manokwari,-0.8667,134.0833,23.5,94,100,1.64,ID,1694380521
489,vyritsa,59.4078,30.3481,14.74,78,100,1.86,RU,1694380521
490,ambovombe,-25.1667,46.0833,21.94,71,0,1.18,MG,1694380521
491,sao joao da barra,-21.6403,-41.0511,24.05,87,0,7.09,BR,1694380455
492,samtse,26.899,89.0995,24.49,88,28,1.84,BT,1694380522
493,moranbah,-22.0016,148.0466,14.07,87,0,5.27,AU,1694380522
494,nagqu,31.5,92.0,4.02,96,100,2.2,CN,1694380522
495,sisak,45.4661,16.3783,16.99,63,10,0.86,HR,1694380522
496,tengrela,10.4869,-6.4097,23.68,89,64,2.06,CI,1694380523
497,taunggyi,20.7833,97.0333,17.41,98,100,1.41,MM,1694380523
498,neuenkirch,47.0999,8.2042,20.61,85,19,0.0,CH,1694380523
499,piotrkow kujawski,52.5511,18.4991,20.1,53,0,0.34,PL,1694380524
500,vanino,49.0869,140.2543,13.96,73,100,1.11,RU,1694380524
501,suva,-18.1416,178.4415,26.71,69,40,3.6,FJ,1694380524
502,kiliya,45.4552,29.2637,13.28,55,0,0.59,UA,1694380524
503,kuqa,41.7278,82.9364,23.61,25,65,1.17,CN,1694380525
504,halden,59.1226,11.3871,17.24,98,35,2.64,NO,1694380525
505,srandakan,-7.9386,110.2506,20.82,89,32,1.61,ID,1694380525
506,chongwe,-15.3292,28.682,21.32,31,0,1.74,ZM,1694380525
507,kyzyl-suu,42.3414,78.0056,16.17,47,85,3.35,KG,1694380526
508,hunstanton,52.95,0.5,20.91,95,70,1.58,GB,1694380526
509,grand falls-windsor,48.9332,-55.6649,14.27,92,92,3.59,CA,1694380340
510,quellon,-43.1167,-73.6167,12.14,62,0,2.57,CL,1694380518
511,borkum,53.5809,6.6915,22.97,88,89,5.56,DE,1694380526
512,muscat,23.6139,58.5922,31.4,57,19,0.78,OM,1694380527
513,hidalgo,20.5,-99.0,24.71,33,0,9.17,MX,1694380527
514,bereznik,62.8551,42.7072,9.27,95,1,1.95,RU,1694380527
515,ancud,-41.8697,-73.8203,9.24,82,50,4.32,CL,1694380418
516,soe,-9.8607,124.284,17.7,87,6,2.3,ID,1694380528
517,fisterra,42.9049,-9.2629,19.45,87,49,2.45,ES,1694380528
518,madimba,-10.4,40.3333,23.46,84,44,2.56,TZ,1694380528
519,minas de marcona,-15.2119,-75.1103,19.11,55,26,4.98,PE,1694380451
520,kiunga,-6.1219,141.2906,22.15,99,100,1.44,PG,1694380529
521,hami,42.8,93.45,22.19,23,100,2.62,CN,1694380529
522,cottage grove,44.8277,-92.9438,23.49,58,75,4.12,US,1694380400
523,kushiro,42.975,144.3747,19.14,97,87,1.2,JP,1694380529
524,pula,44.8683,13.8481,25.55,60,0,1.54,HR,1694380530
525,mount gambier,-37.8333,140.7667,5.62,97,89,1.88,AU,1694380530
526,twon-brass,4.3151,6.2418,26.21,86,63,4.26,NG,1694380530
527,jumla,29.2747,82.1838,15.62,89,100,1.22,NP,1694380530
528,ibarreta,-25.2144,-59.8585,32.79,44,16,4.25,AR,1694380531
529,gasa,31.5,34.4667,26.35,72,0,1.47,PS,1694380531
530,ribeira brava,32.65,-17.0667,23.17,65,33,3.18,PT,1694380531
531,new plymouth,-39.0667,174.0833,11.84,78,100,8.63,NZ,1694380273
532,tame,6.461,-71.73,26.09,89,81,2.0,CO,1694380532
533,aiquile,-18.2041,-65.1807,26.26,18,0,6.77,BO,1694380532
534,moose jaw,50.4001,-105.5344,24.14,17,35,1.54,CA,1694380532
535,puerto ayacucho,5.6639,-67.6236,31.23,68,80,1.19,VE,1694380530
536,tazovsky,67.4667,78.7,9.66,84,100,5.56,RU,1694380455
537,guayaramerin,-10.8368,-65.3614,30.46,50,89,1.57,BO,1694380533
538,revda,56.801,59.9303,8.93,94,100,4.37,RU,1694380533
539,nyurba,63.2842,118.3319,0.49,97,100,2.07,RU,1694380533
540,kegen,43.0197,79.2203,12.21,58,79,2.85,KZ,1694380533
541,champua,22.0833,85.6667,24.46,93,26,1.66,IN,1694380534
542,mar del plata,-38.0023,-57.5575,16.01,78,75,3.6,AR,1694380463
543,impfondo,1.6381,18.0667,22.87,90,15,1.34,CG,1694380534
544,kuta,-8.7233,115.1723,25.97,88,40,3.13,ID,1694380534
545,bassar,9.25,0.7833,22.72,92,86,1.33,TG,1694380535
546,frostburg,39.6581,-78.9284,22.58,75,0,0.0,US,1694380271
547,cassilandia,-19.1133,-51.7342,32.08,25,0,2.79,BR,1694380535
548,medina,24.4686,39.6142,36.24,30,40,4.63,SA,1694380502
549,boguchany,58.3814,97.4531,3.49,82,22,0.73,RU,1694380536
550,emerald,-23.5333,148.1667,12.3,36,0,4.14,AU,1694380302
551,huarmey,-10.0681,-78.1522,21.81,74,8,4.34,PE,1694380537
552,kargalinskaya,43.7417,46.4792,15.17,51,5,6.72,RU,1694380537
553,myanaung,18.2833,95.3167,24.61,98,100,1.66,MM,1694380537
554,nuuk,64.1835,-51.7216,3.34,93,100,2.57,GL,1694380538
555,zeya,53.75,127.2667,7.9,92,100,2.38,RU,1694380538
556,ha'il,27.5219,41.6907,33.01,19,20,2.06,SA,1694380538
557,cedeira,43.6797,-8.0209,19.43,81,100,2.55,ES,1694380539
558,ylitornio,66.3089,23.6773,9.23,74,10,2.19,FI,1694380539
559,kashgar,39.4547,75.9797,23.56,23,0,6.0,CN,1694380539
560,yuzhno-kurilsk,44.0306,145.8556,16.84,95,76,1.95,RU,1694380540
561,mili,6.0815,171.735,28.54,75,70,4.7,MH,1694380540
562,shwebo,22.5667,95.7,25.76,87,100,3.73,MM,1694380540
563,villa de cos,23.2833,-102.35,28.55,19,5,7.96,MX,1694380541
564,orcopampa,-15.2661,-72.3417,15.97,21,67,3.93,PE,1694380541
565,medvezh'yegorsk,62.9167,34.4667,11.56,95,5,1.98,RU,1694380541
566,mezhdurechenskiy,59.6,65.9333,9.25,84,15,2.12,RU,1694380541
567,novodvinsk,64.4165,40.8122,10.34,92,7,2.42,RU,1694380542
568,garoowe,8.4054,48.4845,26.62,62,76,12.3,SO,1694380542
569,pedernales,18.0384,-71.744,30.48,68,51,2.13,DO,1694380542
570,road town,18.4167,-64.6167,32.05,66,20,4.12,VG,1694380542
571,busko-zdroj,50.4708,20.7188,18.94,64,0,1.91,PL,1694380543
572,arish,31.1316,33.7984,26.01,74,0,2.03,EG,1694380543
